{"markers":[{"id":1,"name":"Love.Fish","address":"580 Darling Street, Rozelle, NSW","lat":-20.045317692145485,"lng":139.04302974999996,"type":"restaurant"},{"id":2,"name":"Young Henrys","address":"76 Wilford Street, Newtown, NSW","lat":-31.606954461965184,"lng":147.13150025000004,"type":"bar"},{"id":3,"name":"Hunter Gatherer","address":"Greenwood Plaza, 36 Blue St, North Sydney NSW","lat":-33.84028200000001,"lng":144.26411462500005,"type":"bar"},{"id":4,"name":"onon","address":"7A, 2 Huntley Street, Alexandria, NSW","lat":-28.8102440979799,"lng":128.254714875,"type":"bar"},{"id":5,"name":"Nomad","address":"16 Foster Street, Surry Hills, NSW","lat":-25.33451036566758,"lng":133.63232400000004,"type":"bar"},{"id":6,"name":"onon","address":"43 Macpherson Street, Bronte, NSW","lat":-29.036393311248954,"lng":148.01180987500004,"type":"restaurant"},{"id":7,"name":"Single Origin Roasters","address":"60-64 Reservoir Street, Surry Hills, NSW","lat":-31.813852392919717,"lng":136.180359125,"type":"restaurant"},{"id":8,"name":"onon","address":"60 Riley Street, Darlinghurst, NSW","lat":-28.8102440979799,"lng":143.723464875,"type":"restaurant"}]}